[{"airport":"NEW CHITOSE","area":"JAPAN","country":"JAPAN","lat":42.7925942,"lon":141.6704785,"dst":0,"raw":32400,"timeID":"Asia/Tokyo","timeZone":"Japan Standard Time"},
{"airport":"FUKUOKA","area":"JAPAN","country":"JAPAN","lat":33.5903145,"lon":130.4467091,"dst":0,"raw":32400,"timeID":"Asia/Tokyo","timeZone":"Japan Standard Time"},
{"airport":"HIROSHIMA","area":"JAPAN","country":"JAPAN","lat":34.4398632,"lon":132.9190215,"dst":0,"raw":32400,"timeID":"Asia/Tokyo","timeZone":"Japan Standard Time"},
{"airport":"HANEDA","area":"JAPAN","country":"JAPAN","lat":35.5493932,"lon":139.7798386,"dst":0,"raw":32400,"timeID":"Asia/Tokyo","timeZone":"Japan Standard Time"},
{"airport":"OSAKA","area":"JAPAN","country":"JAPAN","lat":34.4320024,"lon":135.2303939,"dst":0,"raw":32400,"timeID":"Asia/Tokyo","timeZone":"Japan Standard Time"},
{"airport":"NIIGATA","area":"JAPAN","country":"JAPAN","lat":37.9161924,"lon":139.0364126,"dst":0,"raw":32400,"timeID":"Asia/Tokyo","timeZone":"Japan Standard Time"},
{"airport":"KANSAI","area":"JAPAN","country":"JAPAN","lat":34.435912,"lon":135.243496,"dst":0,"raw":32400,"timeID":"Asia/Tokyo","timeZone":"Japan Standard Time"},
{"airport":"KOMATSU","area":"JAPAN","country":"JAPAN","lat":36.401653,"lon":136.413355,"dst":0,"raw":32400,"timeID":"Asia/Tokyo","timeZone":"Japan Standard Time"},
{"airport":"CHUBU INTERNATIONAL","area":"JAPAN","country":"JAPAN","lat":34.8590935,"lon":136.8146005,"dst":0,"raw":32400,"timeID":"Asia/Tokyo","timeZone":"Japan Standard Time"},
{"airport":"NARITA","area":"JAPAN","country":"JAPAN","lat":35.7719867,"lon":140.3928501,"dst":0,"raw":32400,"timeID":"Asia/Tokyo","timeZone":"Japan Standard Time"},
{"airport":"NAHA","area":"JAPAN","country":"JAPAN","lat":26.2123124,"lon":127.6791568,"dst":0,"raw":32400,"timeID":"Asia/Tokyo","timeZone":"Japan Standard Time"},
{"airport":"SENDAI","area":"JAPAN","country":"JAPAN","lat":38.1397222,"lon":140.9169444,"dst":0,"raw":32400,"timeID":"Asia/Tokyo","timeZone":"Japan Standard Time"},
{"airport":"ASAHIKAWA","area":"JAPAN","country":"JAPAN","lat":43.6708024,"lon":142.4542339,"dst":0,"raw":32400,"timeID":"Asia/Tokyo","timeZone":"Japan Standard Time"},
{"airport":"OBIHIRO","area":"JAPAN","country":"JAPAN","lat":42.9238989,"lon":143.1961031,"dst":0,"raw":32400,"timeID":"Asia/Tokyo","timeZone":"Japan Standard Time"},
{"airport":"AKITA","area":"JAPAN","country":"JAPAN","lat":39.7200079,"lon":140.1025642,"dst":0,"raw":32400,"timeID":"Asia/Tokyo","timeZone":"Japan Standard Time"},
{"airport":"YAMAGATA","area":"JAPAN","country":"JAPAN","lat":38.4105762,"lon":140.3664397,"dst":0,"raw":32400,"timeID":"Asia/Tokyo","timeZone":"Japan Standard Time"},
{"airport":"YAMAGUCHI UBE","area":"JAPAN","country":"JAPAN","lat":33.9330182,"lon":131.2750353,"dst":0,"raw":32400,"timeID":"Asia/Tokyo","timeZone":"Japan Standard Time"},
{"airport":"RISHIRI","area":"JAPAN","country":"JAPAN","lat":45.2419444,"lon":141.1875,"dst":0,"raw":32400,"timeID":"Asia/Tokyo","timeZone":"Japan Standard Time"},
{"airport":"Okushiri,jp","area":"JAPAN","country":"JAPAN","lat":42.1612765,"lon":139.4521967,"dst":0,"raw":32400,"timeID":"Asia/Tokyo","timeZone":"Japan Standard Time"},
{"airport":"NAKASHIBETSU","area":"JAPAN","country":"JAPAN","lat":43.5552423,"lon":144.9713915,"dst":0,"raw":32400,"timeID":"Asia/Tokyo","timeZone":"Japan Standard Time"},
{"airport":"MONBETSU","area":"JAPAN","country":"JAPAN","lat":44.3041667,"lon":143.4041667,"dst":0,"raw":32400,"timeID":"Asia/Tokyo","timeZone":"Japan Standard Time"},
{"airport":"MEMANBETSU","area":"JAPAN","country":"JAPAN","lat":43.8814734,"lon":144.1588736,"dst":0,"raw":32400,"timeID":"Asia/Tokyo","timeZone":"Japan Standard Time"},
{"airport":"AOMORI","area":"JAPAN","country":"JAPAN","lat":40.7382687,"lon":140.6890988,"dst":0,"raw":32400,"timeID":"Asia/Tokyo","timeZone":"Japan Standard Time"},
{"airport":"HANAMAKI","area":"JAPAN","country":"JAPAN","lat":39.442597,"lon":141.127748,"dst":0,"raw":32400,"timeID":"Asia/Tokyo","timeZone":"Japan Standard Time"},
{"airport":"OODATE NOSHIRO","area":"JAPAN","country":"JAPAN","lat":40.1919444,"lon":140.3716667,"dst":0,"raw":32400,"timeID":"Asia/Tokyo","timeZone":"Japan Standard Time"},
{"airport":"SHOUNAI","area":"JAPAN","country":"JAPAN","lat":38.8158132,"lon":139.7877646,"dst":0,"raw":32400,"timeID":"Asia/Tokyo","timeZone":"Japan Standard Time"},
{"airport":"FUKUSHIMA","area":"JAPAN","country":"JAPAN","lat":37.2268482,"lon":140.4334398,"dst":0,"raw":32400,"timeID":"Asia/Tokyo","timeZone":"Japan Standard Time"},
{"airport":"Oshima","area":"JAPAN","country":"JAPAN","lat":34.7824742,"lon":139.3634056,"dst":0,"raw":32400,"timeID":"Asia/Tokyo","timeZone":"Japan Standard Time"},
{"airport":"NIIJIMA","area":"JAPAN","country":"JAPAN","lat":34.3694444,"lon":139.2686111,"dst":0,"raw":32400,"timeID":"Asia/Tokyo","timeZone":"Japan Standard Time"},
{"airport":"Kouzushima","area":"JAPAN","country":"JAPAN","lat":30.3833178,"lon":130.6589869,"dst":0,"raw":32400,"timeID":"Asia/Tokyo","timeZone":"Japan Standard Time"},
{"airport":"MIYAKEJIMA","area":"JAPAN","country":"JAPAN","lat":34.0737065,"lon":139.5584628,"dst":0,"raw":32400,"timeID":"Asia/Tokyo","timeZone":"Japan Standard Time"},
{"airport":"Hachijojima","area":"JAPAN","country":"JAPAN","lat":33.1030212,"lon":139.8035566,"dst":0,"raw":32400,"timeID":"Asia/Tokyo","timeZone":"Japan Standard Time"},
{"airport":"sado-shi","area":"JAPAN","country":"JAPAN","lat":38.0183525,"lon":138.368082,"dst":0,"raw":32400,"timeID":"Asia/Tokyo","timeZone":"Japan Standard Time"},
{"airport":"MATSUMOTO","area":"JAPAN","country":"JAPAN","lat":36.1646919,"lon":137.9264571,"dst":0,"raw":32400,"timeID":"Asia/Tokyo","timeZone":"Japan Standard Time"},
{"airport":"shizuoka","area":"JAPAN","country":"JAPAN","lat":34.975562,"lon":138.3827596,"dst":0,"raw":32400,"timeID":"Asia/Tokyo","timeZone":"Japan Standard Time"},
{"airport":"toyama","area":"JAPAN","country":"JAPAN","lat":36.6433214,"lon":137.1895238,"dst":0,"raw":32400,"timeID":"Asia/Tokyo","timeZone":"Japan Standard Time"},
{"airport":"noto","area":"JAPAN","country":"JAPAN","lat":37.2950942,"lon":136.9571783,"dst":0,"raw":32400,"timeID":"Asia/Tokyo","timeZone":"Japan Standard Time"},
{"airport":"fukui","area":"JAPAN","country":"JAPAN","lat":36.1399101,"lon":136.22183,"dst":0,"raw":32400,"timeID":"Asia/Tokyo","timeZone":"Japan Standard Time"},
{"airport":"koube","area":"JAPAN","country":"JAPAN","lat":34.6353604,"lon":135.2249203,"dst":0,"raw":32400,"timeID":"Asia/Tokyo","timeZone":"Japan Standard Time"},
{"airport":"nankishirahama","area":"JAPAN","country":"JAPAN","lat":33.6621674,"lon":135.3603783,"dst":0,"raw":32400,"timeID":"Asia/Tokyo","timeZone":"Japan Standard Time"},
{"airport":"tottori","area":"JAPAN","country":"JAPAN","lat":35.5265621,"lon":134.1679318,"dst":0,"raw":32400,"timeID":"Asia/Tokyo","timeZone":"Japan Standard Time"},
{"airport":"oki","area":"JAPAN","country":"JAPAN","lat":36.1778807,"lon":133.3301615,"dst":0,"raw":32400,"timeID":"Asia/Tokyo","timeZone":"Japan Standard Time"},
{"airport":"izumo","area":"JAPAN","country":"JAPAN","lat":35.4147713,"lon":132.8860537,"dst":0,"raw":32400,"timeID":"Asia/Tokyo","timeZone":"Japan Standard Time"},
{"airport":"iwami","area":"JAPAN","country":"JAPAN","lat":34.6783327,"lon":131.7968695,"dst":0,"raw":32400,"timeID":"Asia/Tokyo","timeZone":"Japan Standard Time"},
{"airport":"okayama","area":"JAPAN","country":"JAPAN","lat":34.7601065,"lon":133.853084,"dst":0,"raw":32400,"timeID":"Asia/Tokyo","timeZone":"Japan Standard Time"},
{"airport":"saga-shi","area":"JAPAN","country":"JAPAN","lat":33.263482,"lon":130.3008576,"dst":0,"raw":32400,"timeID":"Asia/Tokyo","timeZone":"Japan Standard Time"},
{"airport":"tsushima","area":"JAPAN","country":"JAPAN","lat":34.2865379,"lon":129.3264287,"dst":0,"raw":32400,"timeID":"Asia/Tokyo","timeZone":"Japan Standard Time"},
{"airport":"fukue","area":"JAPAN","country":"JAPAN","lat":32.6682259,"lon":128.8373817,"dst":0,"raw":32400,"timeID":"Asia/Tokyo","timeZone":"Japan Standard Time"},
{"airport":"iki-shi","area":"JAPAN","country":"JAPAN","lat":33.7499501,"lon":129.6913518,"dst":0,"raw":32400,"timeID":"Asia/Tokyo","timeZone":"Japan Standard Time"},
{"airport":"tanegashima","area":"JAPAN","country":"JAPAN","lat":30.6087929,"lon":130.9914024,"dst":0,"raw":32400,"timeID":"Asia/Tokyo","timeZone":"Japan Standard Time"},
{"airport":"yakushima","area":"JAPAN","country":"JAPAN","lat":30.3833178,"lon":130.6589869,"dst":0,"raw":32400,"timeID":"Asia/Tokyo","timeZone":"Japan Standard Time"},
{"airport":"amami","area":"JAPAN","country":"JAPAN","lat":28.4322109,"lon":129.7087538,"dst":0,"raw":32400,"timeID":"Asia/Tokyo","timeZone":"Japan Standard Time"},
{"airport":"kikai","area":"JAPAN","country":"JAPAN","lat":28.316836,"lon":129.9400319,"dst":0,"raw":32400,"timeID":"Asia/Tokyo","timeZone":"Japan Standard Time"},
{"airport":"tokunoshima","area":"JAPAN","country":"JAPAN","lat":27.8322926,"lon":128.8832592,"dst":0,"raw":32400,"timeID":"Asia/Tokyo","timeZone":"Japan Standard Time"},
{"airport":"okinoerabu","area":"JAPAN","country":"JAPAN","lat":27.4331829,"lon":128.7045839,"dst":0,"raw":32400,"timeID":"Asia/Tokyo","timeZone":"Japan Standard Time"},
{"airport":"yoron","area":"JAPAN","country":"JAPAN","lat":27.0429976,"lon":128.4000697,"dst":0,"raw":32400,"timeID":"Asia/Tokyo","timeZone":"Japan Standard Time"},
{"airport":"awakuni","area":"JAPAN","country":"JAPAN","lat":34.1588534,"lon":132.2348553,"dst":0,"raw":32400,"timeID":"Asia/Tokyo","timeZone":"Japan Standard Time"},
{"airport":"kumejima","area":"JAPAN","country":"JAPAN","lat":26.3648804,"lon":126.7175938,"dst":0,"raw":32400,"timeID":"Asia/Tokyo","timeZone":"Japan Standard Time"},
{"airport":"kerama","area":"JAPAN","country":"JAPAN","lat":26.1713937,"lon":127.2938887,"dst":0,"raw":32400,"timeID":"Asia/Tokyo","timeZone":"Japan Standard Time"},
{"airport":"minamidaitoh","area":"JAPAN","country":"JAPAN","lat":25.8460007,"lon":131.2654191,"dst":0,"raw":32400,"timeID":"Asia/Tokyo","timeZone":"Japan Standard Time"},
{"airport":"kitadaito","area":"JAPAN","country":"JAPAN","lat":25.9415295,"lon":131.3059496,"dst":0,"raw":32400,"timeID":"Asia/Tokyo","timeZone":"Japan Standard Time"},
{"airport":"miyako","area":"JAPAN","country":"JAPAN","lat":24.779381,"lon":125.2974706,"dst":0,"raw":32400,"timeID":"Asia/Tokyo","timeZone":"Japan Standard Time"},
{"airport":"Ishigaki","area":"JAPAN","country":"JAPAN","lat":24.345279,"lon":124.183799,"dst":0,"raw":32400,"timeID":"Asia/Tokyo","timeZone":"Japan Standard Time"},
{"airport":"SHAHJALAL INTÅfL","area":"asia","country":"BANGLADESH","lat":23.846615,"lon":90.4026234,"dst":0,"raw":21600,"timeID":"Asia/Dhaka","timeZone":"Bangladesh Standard Time"},
{"airport":"BAIYUN INTÅfL","area":"asia","country":"CHINA","lat":23.3959079,"lon":113.3079699,"dst":0,"raw":28800,"timeID":"Asia/Shanghai","timeZone":"China Standard Time"},
{"airport":"CHANGCHUN LONGJIA","area":"asia","country":"CHINA","lat":43.99267,"lon":125.700341,"dst":0,"raw":28800,"timeID":"Asia/Shanghai","timeZone":"China Standard Time"},
{"airport":"CHONGQING JIANGBEI INTÅfL","area":"asia","country":"CHINA","lat":29.7191667,"lon":106.6416667,"dst":0,"raw":28800,"timeID":"Asia/Shanghai","timeZone":"China Standard Time"},
{"airport":"CHENGDU SHUANGLIU INTÅfL","area":"asia","country":"CHINA","lat":30.567456,"lon":103.9492936,"dst":0,"raw":28800,"timeID":"Asia/Shanghai","timeZone":"China Standard Time"},
{"airport":"DALIAN ZHOUSHUIZI","area":"asia","country":"CHINA","lat":38.9655556,"lon":121.5383333,"dst":0,"raw":28800,"timeID":"Asia/Shanghai","timeZone":"China Standard Time"},
{"airport":"HANGZHOU XIAOSHAN INTÅfL","area":"asia","country":"CHINA","lat":30.2359486,"lon":120.4388907,"dst":0,"raw":28800,"timeID":"Asia/Shanghai","timeZone":"China Standard Time"},
{"airport":"HONG KONG","area":"asia","country":"CHINA","lat":22.3079171,"lon":113.9185238,"dst":0,"raw":28800,"timeID":"Asia/Hong_Kong","timeZone":"Hong Kong Standard Time"},
{"airport":"NANCHANG CHANGBEI INTÅfL","area":"asia","country":"CHINA","lat":28.8574636,"lon":115.9106655,"dst":0,"raw":28800,"timeID":"Asia/Shanghai","timeZone":"China Standard Time"},
{"airport":"KUNMING WUJIABA INTÅfL","area":"asia","country":"CHINA","lat":24.9971271,"lon":102.7407471,"dst":0,"raw":28800,"timeID":"Asia/Shanghai","timeZone":"China Standard Time"},
{"airport":"LANZHOU ZHONGCHUAN","area":"asia","country":"CHINA","lat":36.5075934,"lon":103.6152879,"dst":0,"raw":28800,"timeID":"Asia/Shanghai","timeZone":"China Standard Time"},
{"airport":"LIANYUNGANG BAITABU","area":"asia","country":"CHINA","lat":34.564965,"lon":118.881707,"dst":0,"raw":28800,"timeID":"Asia/Shanghai","timeZone":"China Standard Time"},
{"airport":"NINGBO LISHE INTÅfL","area":"asia","country":"CHINA","lat":29.8266667,"lon":121.4619444,"dst":0,"raw":28800,"timeID":"Asia/Shanghai","timeZone":"China Standard Time"},
{"airport":"NANJING LUKOU INTÅfL","area":"asia","country":"CHINA","lat":31.7338222,"lon":118.8719394,"dst":0,"raw":28800,"timeID":"Asia/Shanghai","timeZone":"China Standard Time"},
{"airport":"NANNING WUXU INTÅfL","area":"asia","country":"CHINA","lat":22.6096443,"lon":108.1716582,"dst":0,"raw":28800,"timeID":"Asia/Shanghai","timeZone":"China Standard Time"},
{"airport":"NANTONG","area":"asia","country":"CHINA","lat":32.0708333,"lon":120.9755556,"dst":0,"raw":28800,"timeID":"Asia/Shanghai","timeZone":"China Standard Time"},
{"airport":"CAPITAL","area":"asia","country":"CHINA","lat":39.843889,"lon":-89.677778,"dst":0,"raw":-21600,"timeID":"America/Chicago","timeZone":"Central Standard Time"},
{"airport":"PUDONG","area":"asia","country":"CHINA","lat":31.1443439,"lon":121.808273,"dst":0,"raw":28800,"timeID":"Asia/Shanghai","timeZone":"China Standard Time"},
{"airport":"SHENYANG TAOXIAN INTÅfL","area":"asia","country":"CHINA","lat":41.6352665,"lon":123.496524,"dst":0,"raw":28800,"timeID":"Asia/Shanghai","timeZone":"China Standard Time"},
{"airport":"XIÅfAN XIANYANG INTÅfL","area":"asia","country":"CHINA","lat":34.437111,"lon":108.7573294,"dst":0,"raw":28800,"timeID":"Asia/Shanghai","timeZone":"China Standard Time"},
{"airport":"SUZHOU","area":"asia","country":"CHINA","lat":31.2245279,"lon":121.0569019,"dst":0,"raw":28800,"timeID":"Asia/Shanghai","timeZone":"China Standard Time"},
{"airport":"QINGDAO LIUTING INTÅfL","area":"asia","country":"CHINA","lat":36.2666745,"lon":120.3831232,"dst":0,"raw":28800,"timeID":"Asia/Shanghai","timeZone":"China Standard Time"},
{"airport":"TIANJIN BINHAI INTÅfL","area":"asia","country":"CHINA","lat":39.130406,"lon":117.3592,"dst":0,"raw":28800,"timeID":"Asia/Shanghai","timeZone":"China Standard Time"},
{"airport":"YAIYUAN WUSU","area":"asia","country":"CHINA","lat":37.7469444,"lon":112.6283333,"dst":0,"raw":28800,"timeID":"Asia/Shanghai","timeZone":"China Standard Time"},
{"airport":"WENZHOU YONGQIANG","area":"asia","country":"CHINA","lat":27.9110235,"lon":120.8554106,"dst":0,"raw":28800,"timeID":"Asia/Shanghai","timeZone":"China Standard Time"},
{"airport":"WUHAN TIANHE INTÅfL","area":"asia","country":"CHINA","lat":30.7766171,"lon":114.2124495,"dst":0,"raw":28800,"timeID":"Asia/Shanghai","timeZone":"China Standard Time"},
{"airport":"wuxi","area":"asia","country":"CHINA","lat":31.4986257,"lon":120.4352674,"dst":0,"raw":28800,"timeID":"Asia/Shanghai","timeZone":"China Standard Time"},
{"airport":"SARDAR VALLABHAI PATEL IINTÅfL","area":"asia","country":"INDIA","lat":23.0734262,"lon":72.626571,"dst":0,"raw":19800,"timeID":"Asia/Calcutta","timeZone":"India Standard Time"},
{"airport":"HAL BANGALORE","area":"asia","country":"INDIA","lat":12.9517694,"lon":77.6653692,"dst":0,"raw":19800,"timeID":"Asia/Calcutta","timeZone":"India Standard Time"},
{"airport":"NETAJI SUBHAS CHANDRA BOSE","area":"asia","country":"INDIA","lat":22.6520429,"lon":88.4463299,"dst":0,"raw":19800,"timeID":"Asia/Calcutta","timeZone":"India Standard Time"},
{"airport":"COIMBATORE","area":"asia","country":"INDIA","lat":11.0296345,"lon":77.0415834,"dst":0,"raw":19800,"timeID":"Asia/Calcutta","timeZone":"India Standard Time"},
{"airport":"COCHIN INTÅfL","area":"asia","country":"INDIA","lat":10.1517834,"lon":76.392958,"dst":0,"raw":19800,"timeID":"Asia/Calcutta","timeZone":"India Standard Time"},
{"airport":"INDIRA GANDHI INTÅfL","area":"asia","country":"INDIA","lat":28.5561624,"lon":77.0999578,"dst":0,"raw":19800,"timeID":"Asia/Calcutta","timeZone":"India Standard Time"},
{"airport":"HYDERABAD","area":"asia","country":"INDIA","lat":25.3181264,"lon":68.3663465,"dst":0,"raw":18000,"timeID":"Asia/Karachi","timeZone":"Pakistan Standard Time"},
{"airport":"CHENNAI INTÅfL","area":"asia","country":"INDIA","lat":12.994112,"lon":80.1708668,"dst":0,"raw":19800,"timeID":"Asia/Calcutta","timeZone":"India Standard Time"},
{"airport":"PUNE INTÅfL","area":"asia","country":"INDIA","lat":18.5862229,"lon":73.9193407,"dst":0,"raw":19800,"timeID":"Asia/Calcutta","timeZone":"India Standard Time"},
{"airport":"Hang Nadim","area":"asia","country":"INDONESIA","lat":1.1219253,"lon":104.1182972,"dst":0,"raw":25200,"timeID":"Asia/Jakarta","timeZone":"Western Indonesia Time"},
{"airport":"Soekarno-Hatta International","area":"asia","country":"INDONESIA","lat":-6.1275118,"lon":106.6536859,"dst":0,"raw":25200,"timeID":"Asia/Jakarta","timeZone":"Western Indonesia Time"},
{"airport":"NGURAH RAI","area":"asia","country":"INDONESIA","lat":-8.7467172,"lon":115.166787,"dst":0,"raw":28800,"timeID":"Asia/Makassar","timeZone":"Central Indonesia Time"},
{"airport":"ACHMAD YANI INTÅfL","area":"asia","country":"INDONESIA","lat":-6.9781588,"lon":110.3776967,"dst":0,"raw":25200,"timeID":"Asia/Jakarta","timeZone":"Western Indonesia Time"},
{"airport":"JUANDA INTÅfL","area":"asia","country":"INDONESIA","lat":-7.3788851,"lon":112.7872891,"dst":0,"raw":25200,"timeID":"Asia/Jakarta","timeZone":"Western Indonesia Time"},
{"airport":"INCHEON INTÅfL","area":"asia","country":"KOREA","lat":37.4601908,"lon":126.4406957,"dst":0,"raw":32400,"timeID":"Asia/Seoul","timeZone":"Korean Standard Time"},
{"airport":"KIMHAE","area":"asia","country":"KOREA","lat":35.17322,"lon":128.9464591,"dst":0,"raw":32400,"timeID":"Asia/Seoul","timeZone":"Korean Standard Time"},
{"airport":"SULTAN AZLAN SHAH","area":"asia","country":"MALAYSIA","lat":4.5725287,"lon":101.0952226,"dst":0,"raw":28800,"timeID":"Asia/Kuala_Lumpur","timeZone":"Malaysia Time"},
{"airport":"SENAI INTÅfL","area":"asia","country":"MALAYSIA","lat":1.6365503,"lon":103.6698309,"dst":0,"raw":28800,"timeID":"Asia/Kuala_Lumpur","timeZone":"Malaysia Time"},
{"airport":"KUCHING INTÅfL","area":"asia","country":"MALAYSIA","lat":1.4873622,"lon":110.3521585,"dst":0,"raw":28800,"timeID":"Asia/Kuala_Lumpur","timeZone":"Malaysia Time"},
{"airport":"KUALA LUMPUR INTÅfL","area":"asia","country":"MALAYSIA","lat":2.75419,"lon":101.70474,"dst":0,"raw":28800,"timeID":"Asia/Kuala_Lumpur","timeZone":"Malaysia Time"},
{"airport":"BATU BEREBDAM MELAKA INTÅfL","area":"asia","country":"MALAYSIA","lat":2.261563,"lon":102.250876,"dst":0,"raw":28800,"timeID":"Asia/Kuala_Lumpur","timeZone":"Malaysia Time"},
{"airport":"PENANG INTÅfL","area":"asia","country":"MALAYSIA","lat":5.29387,"lon":100.2655971,"dst":0,"raw":28800,"timeID":"Asia/Kuala_Lumpur","timeZone":"Malaysia Time"},
{"airport":"YANGON INTÅfL","area":"asia","country":"MYANMAR","lat":16.909714,"lon":96.13499,"dst":0,"raw":23400,"timeID":"Asia/Rangoon","timeZone":"Myanmar Time"},
{"airport":"BENAZIR BHUTTO INTÅfL","area":"asia","country":"PAKISTAN","lat":33.607891,"lon":73.1004046,"dst":0,"raw":18000,"timeID":"Asia/Karachi","timeZone":"Pakistan Standard Time"},
{"airport":"JINNAH INTÅfL","area":"asia","country":"PAKISTAN","lat":24.900457,"lon":67.1681596,"dst":0,"raw":18000,"timeID":"Asia/Karachi","timeZone":"Pakistan Standard Time"},
{"airport":"LAHORE INTÅfL","area":"asia","country":"PAKISTAN","lat":31.521389,"lon":74.404444,"dst":0,"raw":18000,"timeID":"Asia/Karachi","timeZone":"Pakistan Standard Time"},
{"airport":"MACTAN-CEBU INTÅfL","area":"asia","country":"PHILIPPINES","lat":10.3106556,"lon":123.9802214,"dst":0,"raw":28800,"timeID":"Asia/Manila","timeZone":"Philippine Standard Time"},
{"airport":"NINOY AQUINO INTÅfL","area":"asia","country":"PHILIPPINES","lat":14.5164897,"lon":121.0015757,"dst":0,"raw":28800,"timeID":"Asia/Manila","timeZone":"Philippine Standard Time"},
{"airport":"SUBIC BAY","area":"asia","country":"PHILIPPINES","lat":14.7954036,"lon":120.2729063,"dst":0,"raw":28800,"timeID":"Asia/Manila","timeZone":"Philippine Standard Time"},
{"airport":"CHANGI","area":"asia","country":"SINGAPORE","lat":1.3644202,"lon":103.9915308,"dst":0,"raw":28800,"timeID":"Asia/Singapore","timeZone":"Singapore Standard Time"},
{"airport":"BANDAANAYAKE","area":"asia","country":"SRI LANKA","lat":7.1801552,"lon":79.8842521,"dst":0,"raw":19800,"timeID":"Asia/Colombo","timeZone":"India Standard Time"},
{"airport":"HSINCHU","area":"asia","country":"TAIWAN","lat":24.8066493,"lon":120.9669257,"dst":0,"raw":28800,"timeID":"Asia/Taipei","timeZone":"Taipei Standard Time"},
{"airport":"KAOHSIUNG INTÅfL","area":"asia","country":"TAIWAN","lat":22.574629,"lon":120.3448068,"dst":0,"raw":28800,"timeID":"Asia/Taipei","timeZone":"Taipei Standard Time"},
{"airport":"TAINAN","area":"asia","country":"TAIWAN","lat":22.9496329,"lon":120.2051814,"dst":0,"raw":28800,"timeID":"Asia/Taipei","timeZone":"Taipei Standard Time"},
{"airport":"TAOYUAN INTÅfL","area":"asia","country":"TAIWAN","lat":25.0796514,"lon":121.234217,"dst":0,"raw":28800,"timeID":"Asia/Taipei","timeZone":"Taipei Standard Time"},
{"airport":"Songshan","area":"asia","country":"TAIWAN","lat":25.067566,"lon":121.552699,"dst":0,"raw":28800,"timeID":"Asia/Taipei","timeZone":"Taipei Standard Time"},
{"airport":"TAICHUNG","area":"asia","country":"TAIWAN","lat":24.254972,"lon":120.6011066,"dst":0,"raw":28800,"timeID":"Asia/Taipei","timeZone":"Taipei Standard Time"},
{"airport":"SUVANARBHUMI INTÅfL","area":"asia","country":"THAILAND","lat":13.6899991,"lon":100.7501124,"dst":0,"raw":25200,"timeID":"Asia/Bangkok","timeZone":"Indochina Time"},
{"airport":"CHIANG MAI INTÅfL","area":"asia","country":"THAILAND","lat":18.767749,"lon":98.9640088,"dst":0,"raw":25200,"timeID":"Asia/Bangkok","timeZone":"Indochina Time"},
{"airport":"Hanoi International","area":"asia","country":"VIETNAM","lat":21.0336469,"lon":105.8130686,"dst":0,"raw":25200,"timeID":"Asia/Saigon","timeZone":"Indochina Time"},
{"airport":"TANSONNHAT INTÅfL","area":"asia","country":"VIETNUM","lat":10.8184631,"lon":106.6588245,"dst":0,"raw":25200,"timeID":"Asia/Saigon","timeZone":"Indochina Time"},
{"airport":"ADELAIDE INTÅfL","area":"pacific","country":"AUSTRALIA","lat":-34.9461557,"lon":138.5332378,"dst":3600,"raw":34200,"timeID":"Australia/Adelaide","timeZone":"Australian Central Daylight Time"},
{"airport":"BRISBANE INTÅfL","area":"pacific","country":"AUSTRALIA","lat":-27.3942144,"lon":153.1218303,"dst":0,"raw":36000,"timeID":"Australia/Brisbane","timeZone":"Australian Eastern Standard Time"},
{"airport":"MELBOURNE INTÅfL","area":"pacific","country":"AUSTRALIA","lat":28.0985962,"lon":-80.6369252,"dst":0,"raw":-18000,"timeID":"America/New_York","timeZone":"Eastern Standard Time"},
{"airport":"PERTH","area":"pacific","country":"AUSTRALIA","lat":-31.9385476,"lon":115.9672492,"dst":0,"raw":28800,"timeID":"Australia/Perth","timeZone":"Australian Western Standard Time"},
{"airport":"KINGSFORD SMITH(MASCOT)","area":"pacific","country":"AUSTRALIA","lat":-33.9212714,"lon":151.2270202,"dst":3600,"raw":36000,"timeID":"Australia/Sydney","timeZone":"Australian Eastern Daylight Time"},
{"airport":"AUCKLAND INTÅfL","area":"pacific","country":"NEW ZEALAND","lat":-37.0082476,"lon":174.7850358,"dst":3600,"raw":43200,"timeID":"Pacific/Auckland","timeZone":"New Zealand Daylight Time"},
{"airport":"CHRISTCHURCH INTÅfL","area":"pacific","country":"NEW ZEALAND","lat":-43.4863981,"lon":172.5368705,"dst":3600,"raw":43200,"timeID":"Pacific/Auckland","timeZone":"New Zealand Daylight Time"},
{"airport":"HASTINGS","area":"pacific","country":"NEW ZEALAND","lat":40.6082036,"lon":-98.4266472,"dst":0,"raw":-21600,"timeID":"America/Chicago","timeZone":"Central Standard Time"},
{"airport":"WELLINGTON INTÅfL","area":"pacific","country":"NEW ZEALAND","lat":-41.3275941,"lon":174.8075984,"dst":3600,"raw":43200,"timeID":"Pacific/Auckland","timeZone":"New Zealand Daylight Time"},
{"airport":"MIRABEL","area":"n_america","country":"CANADA","lat":45.6701862,"lon":-74.0324134,"dst":0,"raw":-18000,"timeID":"America/Toronto","timeZone":"Eastern Standard Time"},
{"airport":"MCDONALD CARTIER INTÅfL","area":"n_america","country":"CANADA","lat":45.319212,"lon":-75.6691652,"dst":0,"raw":-18000,"timeID":"America/Toronto","timeZone":"Eastern Standard Time"},
{"airport":"TORONTO CITY CENTRE","area":"n_america","country":"CANADA","lat":43.6284819,"lon":-79.3959577,"dst":0,"raw":-18000,"timeID":"America/Toronto","timeZone":"Eastern Standard Time"},
{"airport":"PIERRE ELLIOTT TRUDEAU","area":"n_america","country":"CANADA","lat":45.4697382,"lon":-73.7449195,"dst":0,"raw":-18000,"timeID":"America/Toronto","timeZone":"Eastern Standard Time"},
{"airport":"VANCOUVER INTÅfL","area":"n_america","country":"CANADA","lat":49.1966913,"lon":-123.1815123,"dst":0,"raw":-28800,"timeID":"America/Vancouver","timeZone":"Pacific Standard Time"},
{"airport":"LESTER B. PEARSON INTÅfL","area":"n_america","country":"CANADA","lat":43.6777176,"lon":-79.6248197,"dst":0,"raw":-18000,"timeID":"America/Toronto","timeZone":"Eastern Standard Time"},
{"airport":"ALLENTOWN BETHLEHEM EASTON","area":"n_america","country":"U.S.A.","lat":40.6544756,"lon":-75.4385675,"dst":0,"raw":-18000,"timeID":"America/New_York","timeZone":"Eastern Standard Time"},
{"airport":"HARTSFIELD ATLANTA INTÅfL","area":"n_america","country":"U.S.A.","lat":33.6407282,"lon":-84.4277001,"dst":0,"raw":-18000,"timeID":"America/New_York","timeZone":"Eastern Standard Time"},
{"airport":"LOGAN INTÅfL","area":"n_america","country":"U.S.A.","lat":42.3656132,"lon":-71.0095602,"dst":0,"raw":-18000,"timeID":"America/New_York","timeZone":"Eastern Standard Time"},
{"airport":"CLEVELAND HOPKINS INTÅfL","area":"n_america","country":"U.S.A.","lat":41.4124339,"lon":-81.8479925,"dst":0,"raw":-18000,"timeID":"America/New_York","timeZone":"Eastern Standard Time"},
{"airport":"LOVE FIELD","area":"n_america","country":"U.S.A.","lat":41.2180901,"lon":-87.5403132,"dst":0,"raw":-21600,"timeID":"America/Chicago","timeZone":"Central Standard Time"},
{"airport":"NATIONAL","area":"n_america","country":"U.S.A.","lat":53.8825,"lon":28.0325,"dst":0,"raw":10800,"timeID":"Europe/Minsk","timeZone":"Further-eastern European Time"},
{"airport":"DENVER INTÅfL","area":"n_america","country":"U.S.A.","lat":39.8560963,"lon":-104.6737376,"dst":0,"raw":-25200,"timeID":"America/Denver","timeZone":"Mountain Standard Time"},
{"airport":"CITY AIRPORT","area":"n_america","country":"U.S.A.","lat":52.0262959,"lon":113.3046845,"dst":0,"raw":36000,"timeID":"Asia/Yakutsk","timeZone":"Yakutsk Standard Time"},
{"airport":"DALLAS/FORTWORTH INTÅfL","area":"n_america","country":"U.S.A.","lat":32.8998091,"lon":-97.0403352,"dst":0,"raw":-21600,"timeID":"America/Chicago","timeZone":"Central Standard Time"},
{"airport":"WAYNE COUNTY","area":"n_america","country":"U.S.A.","lat":36.8576476,"lon":-84.8510478,"dst":0,"raw":-18000,"timeID":"America/New_York","timeZone":"Eastern Standard Time"},
{"airport":"Newark Liberty","area":"n_america","country":"U.S.A.","lat":40.6895314,"lon":-74.1744624,"dst":0,"raw":-18000,"timeID":"America/New_York","timeZone":"Eastern Standard Time"},
{"airport":"HONOLULU","area":"n_america","country":"U.S.A.","lat":21.3245132,"lon":-157.9250736,"dst":0,"raw":-36000,"timeID":"Pacific/Honolulu","timeZone":"Hawaii-Aleutian Standard Time"},
{"airport":"HOBBY","area":"n_america","country":"U.S.A.","lat":29.6541074,"lon":-95.2766145,"dst":0,"raw":-21600,"timeID":"America/Chicago","timeZone":"Central Standard Time"},
{"airport":"WASHINGTON DULLES INTÅfL","area":"n_america","country":"U.S.A.","lat":38.9531162,"lon":-77.4565388,"dst":0,"raw":-18000,"timeID":"America/New_York","timeZone":"Eastern Standard Time"},
{"airport":"INTERCONTINENTAL","area":"n_america","country":"U.S.A.","lat":34.6275,"lon":-118.0833333,"dst":0,"raw":-28800,"timeID":"America/Los_Angeles","timeZone":"Pacific Standard Time"},
{"airport":"INDIANAPOLIS INTÅfL","area":"n_america","country":"U.S.A.","lat":39.72616,"lon":-86.27225,"dst":0,"raw":-18000,"timeID":"America/New_York","timeZone":"Eastern Standard Time"},
{"airport":"J.F.KENNEDY INTÅfL","area":"n_america","country":"U.S.A.","lat":40.6413111,"lon":-73.7781391,"dst":0,"raw":-18000,"timeID":"America/New_York","timeZone":"Eastern Standard Time"},
{"airport":"LOS ANGELES INTÅfL","area":"n_america","country":"U.S.A.","lat":33.9415889,"lon":-118.40853,"dst":0,"raw":-28800,"timeID":"America/Los_Angeles","timeZone":"Pacific Standard Time"},
{"airport":"LA GUARDIA","area":"n_america","country":"U.S.A.","lat":40.7769271,"lon":-73.8739659,"dst":0,"raw":-18000,"timeID":"America/New_York","timeZone":"Eastern Standard Time"},
{"airport":"MIDWAY","area":"n_america","country":"U.S.A.","lat":43.4533903,"lon":-112.8038241,"dst":0,"raw":-25200,"timeID":"America/Denver","timeZone":"Mountain Standard Time"},
{"airport":"MIAMI INTÅfL","area":"n_america","country":"U.S.A.","lat":25.795865,"lon":-80.2870457,"dst":0,"raw":-18000,"timeID":"America/New_York","timeZone":"Eastern Standard Time"},
{"airport":"NONNEAPOLIS ST. PAUL INTÅfL","area":"n_america","country":"U.S.A.","lat":44.8847554,"lon":-93.2222846,"dst":0,"raw":-21600,"timeID":"America/Chicago","timeZone":"Central Standard Time"},
{"airport":"OÅfHARE INTÅfL","area":"n_america","country":"U.S.A.","lat":41.991227,"lon":-87.889462,"dst":0,"raw":-21600,"timeID":"America/Chicago","timeZone":"Central Standard Time"},
{"airport":"PORTLAND INTÅfL","area":"n_america","country":"U.S.A.","lat":45.5897694,"lon":-122.5950942,"dst":0,"raw":-28800,"timeID":"America/Los_Angeles","timeZone":"Pacific Standard Time"},
{"airport":"PHILADELPHIA INTÅfL","area":"n_america","country":"U.S.A.","lat":39.8743959,"lon":-75.2424229,"dst":0,"raw":-18000,"timeID":"America/New_York","timeZone":"Eastern Standard Time"},
{"airport":"SKY HARBOR INTÅfL","area":"n_america","country":"U.S.A.","lat":33.4372686,"lon":-112.0077881,"dst":0,"raw":-25200,"timeID":"America/Phoenix","timeZone":"Mountain Standard Time"},
{"airport":"PITTSBURGH INTÅfL","area":"n_america","country":"U.S.A.","lat":40.4957722,"lon":-80.2413113,"dst":0,"raw":-18000,"timeID":"America/New_York","timeZone":"Eastern Standard Time"},
{"airport":"SAN DIEGO INTÅfL","area":"n_america","country":"U.S.A.","lat":32.7338006,"lon":-117.1933038,"dst":0,"raw":-28800,"timeID":"America/Los_Angeles","timeZone":"Pacific Standard Time"},
{"airport":"SEATTLE-TACOMA INTÅfL","area":"n_america","country":"U.S.A.","lat":47.4502499,"lon":-122.3088165,"dst":0,"raw":-28800,"timeID":"America/Los_Angeles","timeZone":"Pacific Standard Time"},
{"airport":"SAN FRANCISCO INTÅfL","area":"n_america","country":"U.S.A.","lat":37.616035,"lon":-122.392612,"dst":0,"raw":-28800,"timeID":"America/Los_Angeles","timeZone":"Pacific Standard Time"},
{"airport":"HANCOCK INTÅfL","area":"n_america","country":"U.S.A.","lat":43.1139301,"lon":-76.1101888,"dst":0,"raw":-18000,"timeID":"America/New_York","timeZone":"Eastern Standard Time"},
{"airport":"AEROPARQUE JORGE NEWBERY","area":"latinamerica","country":"ARGENTINA","lat":-34.5580305,"lon":-58.4170088,"dst":0,"raw":-10800,"timeID":"America/Cordoba","timeZone":"Argentina Standard Time"},
{"airport":"MINISTRO PISTARINI","area":"latinamerica","country":"ARGENTINA","lat":-34.8150044,"lon":-58.5348284,"dst":0,"raw":-10800,"timeID":"America/Cordoba","timeZone":"Argentina Standard Time"},
{"airport":"RIO DE JANEIRO INTÅfL","area":"latinamerica","country":"BRAZIL","lat":-22.8134098,"lon":-43.2494233,"dst":0,"raw":-10800,"timeID":"America/Sao_Paulo","timeZone":"Brasilia Standard Time"},
{"airport":"GUARULHOS INTÅfL","area":"latinamerica","country":"BRAZIL","lat":-23.4345529,"lon":-46.478126,"dst":0,"raw":-10800,"timeID":"America/Sao_Paulo","timeZone":"Brasilia Standard Time"},
{"airport":"EDUARDO GOMES INTÅfL","area":"latinamerica","country":"BRAZIL","lat":-3.0358474,"lon":-60.0463249,"dst":0,"raw":-14400,"timeID":"America/Boa_Vista","timeZone":"Amazon Standard Time"},
{"airport":"VIRACOPOS","area":"latinamerica","country":"BRAZIL","lat":-23.008205,"lon":-47.1375685,"dst":0,"raw":-10800,"timeID":"America/Sao_Paulo","timeZone":"Brasilia Standard Time"},
{"airport":"PHNOM PENH INTÅfL","area":"latinamerica","country":"CAMBODIA","lat":11.546111,"lon":104.84778,"dst":0,"raw":25200,"timeID":"Asia/Phnom_Penh","timeZone":"Indochina Time"},
{"airport":"MAXICO CITY INTÅfL","area":"latinamerica","country":"MEXICO","lat":19.4360762,"lon":-99.0719083,"dst":0,"raw":-21600,"timeID":"America/Mexico_City","timeZone":"Central Standard Time"},
{"airport":"JORGE CHAVEZ INTÅfL","area":"latinamerica","country":"PERU","lat":-12.0240527,"lon":-77.112036,"dst":0,"raw":-18000,"timeID":"America/Lima","timeZone":"Peru Standard Time"},
{"airport":"LUIS MUNOZ MARIN INTÅfL","area":"latinamerica","country":"PUERTO RICO","lat":18.439167,"lon":-66.001667,"dst":0,"raw":-14400,"timeID":"America/Puerto_Rico","timeZone":"Atlantic Standard Time"},
{"airport":"SIMON BOLIVAR","area":"latinamerica","country":"VENEZUELA","lat":10.6021245,"lon":-66.9955364,"dst":0,"raw":-16200,"timeID":"America/Caracas","timeZone":"Venezuela Time"},
{"airport":"GRAZ","area":"europe","country":"AUSTRIA","lat":46.9940455,"lon":15.4401314,"dst":0,"raw":3600,"timeID":"Europe/Vienna","timeZone":"Central European Standard Time"},
{"airport":"INNSBRUK","area":"europe","country":"AUSTRIA","lat":47.2601622,"lon":11.3493787,"dst":0,"raw":3600,"timeID":"Europe/Vienna","timeZone":"Central European Standard Time"},
{"airport":"LINZ","area":"europe","country":"AUSTRIA","lat":48.235278,"lon":14.188056,"dst":0,"raw":3600,"timeID":"Europe/Vienna","timeZone":"Central European Standard Time"},
{"airport":"VIENNA INTÅfL","area":"europe","country":"AUSTRIA","lat":48.1158333,"lon":16.5665751,"dst":0,"raw":3600,"timeID":"Europe/Vienna","timeZone":"Central European Standard Time"},
{"airport":"BRUSSELS NATIONAL","area":"europe","country":"BELGIUM","lat":50.4642198,"lon":4.4649753,"dst":0,"raw":3600,"timeID":"Europe/Brussels","timeZone":"Central European Standard Time"},
{"airport":"PRAGUE INTÅfL","area":"europe","country":"CZECH","lat":50.101791,"lon":14.2631811,"dst":0,"raw":3600,"timeID":"Europe/Prague","timeZone":"Central European Standard Time"},
{"airport":"BILLUND","area":"europe","country":"DENMARK","lat":55.7408067,"lon":9.1525999,"dst":0,"raw":3600,"timeID":"Europe/Copenhagen","timeZone":"Central European Standard Time"},
{"airport":"COPENHAGEN","area":"europe","country":"DENMARK","lat":55.6180236,"lon":12.6507628,"dst":0,"raw":3600,"timeID":"Europe/Copenhagen","timeZone":"Central European Standard Time"},
{"airport":"HELSINKI-VANTAAN","area":"europe","country":"FINLAND","lat":60.3210416,"lon":24.9528604,"dst":0,"raw":7200,"timeID":"Europe/Helsinki","timeZone":"Eastern European Standard Time"},
{"airport":"CHARLES DE GAULLE","area":"europe","country":"FRANCE","lat":49.0096906,"lon":2.5479245,"dst":0,"raw":3600,"timeID":"Europe/Paris","timeZone":"Central European Standard Time"},
{"airport":"SAINT EXUPERY","area":"europe","country":"FRANCE","lat":45.720362,"lon":5.079507,"dst":0,"raw":3600,"timeID":"Europe/Paris","timeZone":"Central European Standard Time"},
{"airport":"MULHOUSE","area":"europe","country":"FRANCE","lat":47.7421951,"lon":7.4285922,"dst":0,"raw":3600,"timeID":"Europe/Paris","timeZone":"Central European Standard Time"},
{"airport":"ORLY","area":"europe","country":"FRANCE","lat":48.7262433,"lon":2.3652472,"dst":0,"raw":3600,"timeID":"Europe/Paris","timeZone":"Central European Standard Time"},
{"airport":"TOULOUSE BLAGNAC INTÅfL","area":"europe","country":"FRANCE","lat":43.6293863,"lon":1.367682,"dst":0,"raw":3600,"timeID":"Europe/Paris","timeZone":"Central European Standard Time"},
{"airport":"BREMEN","area":"europe","country":"GERMANY","lat":53.0479741,"lon":8.7858793,"dst":0,"raw":3600,"timeID":"Europe/Berlin","timeZone":"Central European Standard Time"},
{"airport":"COLOGNE/BONN","area":"europe","country":"GERMANY","lat":50.8707168,"lon":7.1407344,"dst":0,"raw":3600,"timeID":"Europe/Berlin","timeZone":"Central European Standard Time"},
{"airport":"RHEINE-RUHR","area":"europe","country":"GERMANY","lat":51.4066869,"lon":6.9388044,"dst":0,"raw":3600,"timeID":"Europe/Berlin","timeZone":"Central European Standard Time"},
{"airport":"FRANKFURT INTÅfL","area":"europe","country":"GERMANY","lat":50.0379326,"lon":8.5621518,"dst":0,"raw":3600,"timeID":"Europe/Berlin","timeZone":"Central European Standard Time"},
{"airport":"HANOVER","area":"europe","country":"GERMANY","lat":52.4618486,"lon":9.6889919,"dst":0,"raw":3600,"timeID":"Europe/Berlin","timeZone":"Central European Standard Time"},
{"airport":"HAMBURG","area":"europe","country":"GERMANY","lat":53.633622,"lon":9.9974128,"dst":0,"raw":3600,"timeID":"Europe/Berlin","timeZone":"Central European Standard Time"},
{"airport":"FRANZ JOSEF STRAUSS","area":"europe","country":"GERMANY","lat":48.3536621,"lon":11.7750279,"dst":0,"raw":3600,"timeID":"Europe/Berlin","timeZone":"Central European Standard Time"},
{"airport":"NUERMBERG","area":"europe","country":"GERMANY","lat":49.4971202,"lon":11.079808,"dst":0,"raw":3600,"timeID":"Europe/Berlin","timeZone":"Central European Standard Time"},
{"airport":"Stuttgart","area":"europe","country":"GERMANY","lat":48.6876365,"lon":9.205576,"dst":0,"raw":3600,"timeID":"Europe/Berlin","timeZone":"Central European Standard Time"},
{"airport":"berlin","area":"europe","country":"GERMANY","lat":44.575001,"lon":-71.175835,"dst":0,"raw":-18000,"timeID":"America/New_York","timeZone":"Eastern Standard Time"},
{"airport":"SCHWERIN PARCHIM","area":"europe","country":"GERMANY","lat":53.428612,"lon":11.785,"dst":0,"raw":3600,"timeID":"Europe/Berlin","timeZone":"Central European Standard Time"},
{"airport":"TEGEL","area":"europe","country":"GERMANY","lat":52.5588327,"lon":13.2884374,"dst":0,"raw":3600,"timeID":"Europe/Berlin","timeZone":"Central European Standard Time"},
{"airport":"ATHINAI","area":"europe","country":"GREECE","lat":42.3656132,"lon":-71.0095602,"dst":0,"raw":-18000,"timeID":"America/New_York","timeZone":"Eastern Standard Time"},
{"airport":"LISZT FERENC INTÅfL","area":"europe","country":"HUNGARY","lat":47.4384587,"lon":19.2522958,"dst":0,"raw":3600,"timeID":"Europe/Budapest","timeZone":"Central European Standard Time"},
{"airport":"DUBLIN","area":"europe","country":"IRELAND","lat":53.4264481,"lon":-6.2499098,"dst":0,"raw":0,"timeID":"Europe/Dublin","timeZone":"Greenwich Mean Time"},
{"airport":"LEONARDO DA VINCI(FIUMICINO)","area":"europe","country":"ITALY","lat":41.7998868,"lon":12.2462384,"dst":0,"raw":3600,"timeID":"Europe/Rome","timeZone":"Central European Standard Time"},
{"airport":"LINATE","area":"europe","country":"ITALY","lat":45.4521756,"lon":9.2763079,"dst":0,"raw":3600,"timeID":"Europe/Rome","timeZone":"Central European Standard Time"},
{"airport":"MALPENSA","area":"europe","country":"ITALY","lat":45.6300625,"lon":8.7255307,"dst":0,"raw":3600,"timeID":"Europe/Rome","timeZone":"Central European Standard Time"},
{"airport":"venice","area":"europe","country":"ITALY","lat":27.0732113,"lon":-82.4405867,"dst":0,"raw":-18000,"timeID":"America/New_York","timeZone":"Eastern Standard Time"},
{"airport":"FINDEL","area":"europe","country":"LUXEMBURG","lat":49.6289002,"lon":6.2147446,"dst":0,"raw":3600,"timeID":"Europe/Luxembourg","timeZone":"Central European Standard Time"},
{"airport":"AMSTERDAM-SCHIPHOL","area":"europe","country":"NETHERLANDS","lat":52.3105386,"lon":4.7682744,"dst":0,"raw":3600,"timeID":"Europe/Amsterdam","timeZone":"Central European Standard Time"},
{"airport":"GARDENMOEN","area":"europe","country":"NORWAY","lat":60.1975501,"lon":11.1004153,"dst":0,"raw":3600,"timeID":"Europe/Oslo","timeZone":"Central European Standard Time"},
{"airport":"FREDERIC CHOPIN","area":"europe","country":"POLAND","lat":52.1672369,"lon":20.9678911,"dst":0,"raw":3600,"timeID":"Europe/Warsaw","timeZone":"Central European Standard Time"},
{"airport":"LISBON","area":"europe","country":"PORTUGAL","lat":38.7755936,"lon":-9.1353667,"dst":0,"raw":0,"timeID":"Europe/Lisbon","timeZone":"Western European Standard Time"},
{"airport":"PORTO","area":"europe","country":"PORTUGAL","lat":41.2421186,"lon":-8.6785514,"dst":0,"raw":0,"timeID":"Europe/Lisbon","timeZone":"Western European Standard Time"},
{"airport":"DOMODEDOVO","area":"europe","country":"RUSSIA","lat":55.4103069,"lon":37.9024513,"dst":0,"raw":14400,"timeID":"Europe/Moscow","timeZone":"Moscow Standard Time"},
{"airport":"SHEREMETYEVO","area":"europe","country":"RUSSIA","lat":55.9736482,"lon":37.4125029,"dst":0,"raw":14400,"timeID":"Europe/Moscow","timeZone":"Moscow Standard Time"},
{"airport":"LJUBLJANA(BRNIK)","area":"europe","country":"SLOVENIA","lat":46.2259433,"lon":14.4559143,"dst":0,"raw":3600,"timeID":"Europe/Ljubljana","timeZone":"Central European Standard Time"},
{"airport":"BARCELONA EL PRAT","area":"europe","country":"SPAIN","lat":41.297445,"lon":2.0832941,"dst":0,"raw":3600,"timeID":"Europe/Madrid","timeZone":"Central European Standard Time"},
{"airport":"BARAJAS","area":"europe","country":"SPAIN","lat":40.4839361,"lon":-3.5679515,"dst":0,"raw":3600,"timeID":"Europe/Madrid","timeZone":"Central European Standard Time"},
{"airport":"Stockholm Arlanda","area":"europe","country":"SWEDEN","lat":59.6497622,"lon":17.9237807,"dst":0,"raw":3600,"timeID":"Europe/Stockholm","timeZone":"Central European Standard Time"},
{"airport":"BROMMA","area":"europe","country":"SWEDEN","lat":59.354812,"lon":17.9427216,"dst":0,"raw":3600,"timeID":"Europe/Stockholm","timeZone":"Central European Standard Time"},
{"airport":"Gothenburg-Landvetter","area":"europe","country":"SWEDEN","lat":57.668799,"lon":12.292314,"dst":0,"raw":3600,"timeID":"Europe/Stockholm","timeZone":"Central European Standard Time"},
{"airport":"STURUP","area":"europe","country":"SWEDEN","lat":55.5355336,"lon":13.3723829,"dst":0,"raw":3600,"timeID":"Europe/Stockholm","timeZone":"Central European Standard Time"},
{"airport":"Basel-Mulhouse","area":"europe","country":"SWITZERLAND","lat":47.5981804,"lon":7.5254958,"dst":0,"raw":3600,"timeID":"Europe/Paris","timeZone":"Central European Standard Time"},
{"airport":"GENEVA COINTRIN","area":"europe","country":"SWITZERLAND","lat":46.2370097,"lon":6.1091564,"dst":0,"raw":3600,"timeID":"Europe/Zurich","timeZone":"Central European Standard Time"},
{"airport":"ZURICH","area":"europe","country":"SWITZERLAND","lat":47.4582165,"lon":8.5554755,"dst":0,"raw":3600,"timeID":"Europe/Zurich","timeZone":"Central European Standard Time"},
{"airport":"NELFAST INTÅfL","area":"europe","country":"U.K.","lat":54.6619464,"lon":-6.2179072,"dst":0,"raw":0,"timeID":"Europe/London","timeZone":"Greenwich Mean Time"},
{"airport":"BIRMINGHAM INTÅfL","area":"europe","country":"U.K.","lat":33.5624269,"lon":-86.754126,"dst":0,"raw":-21600,"timeID":"America/Chicago","timeZone":"Central Standard Time"},
{"airport":"GLASGOW","area":"europe","country":"U.K.","lat":55.8690744,"lon":-4.4350529,"dst":0,"raw":0,"timeID":"Europe/London","timeZone":"Greenwich Mean Time"},
{"airport":"GATWICK","area":"europe","country":"U.K.","lat":51.1536621,"lon":-0.1820629,"dst":0,"raw":0,"timeID":"Europe/London","timeZone":"Greenwich Mean Time"},
{"airport":"HEATHROW","area":"europe","country":"U.K.","lat":51.4700223,"lon":-0.4542955,"dst":0,"raw":0,"timeID":"Europe/London","timeZone":"Greenwich Mean Time"},
{"airport":"MANCHESTER","area":"europe","country":"U.K.","lat":53.3588026,"lon":-2.2727303,"dst":0,"raw":0,"timeID":"Europe/London","timeZone":"Greenwich Mean Time"},
{"airport":"NEWCASTLE INTÅfL","area":"europe","country":"U.K.","lat":55.037176,"lon":-1.710324,"dst":0,"raw":0,"timeID":"Europe/London","timeZone":"Greenwich Mean Time"},
{"airport":"NAVOI","area":"europe","country":"UZBEKISTAN","lat":40.1190074,"lon":65.169958,"dst":0,"raw":18000,"timeID":"Asia/Samarkand","timeZone":"Uzbekistan Standard Time"},
{"airport":"BAHRAIN INTÅfL","area":"middleeast","country":"BAHRAIN","lat":26.270833,"lon":50.6336217,"dst":0,"raw":10800,"timeID":"Asia/Bahrain","timeZone":"Arabian Standard Time"},
{"airport":"MEHRABAD","area":"middleeast","country":"IRAN","lat":35.6899882,"lon":51.311241,"dst":0,"raw":12600,"timeID":"Asia/Tehran","timeZone":"Iran Standard Time"},
{"airport":"BEN GURION","area":"middleeast","country":"ISRAEL","lat":32.005532,"lon":34.8854112,"dst":0,"raw":7200,"timeID":"Asia/Jerusalem","timeZone":"Israel Standard Time"},
{"airport":"KUWAIT INTÅfL","area":"middleeast","country":"KUWAIT","lat":29.240116,"lon":47.971252,"dst":0,"raw":10800,"timeID":"Asia/Kuwait","timeZone":"Arabian Standard Time"},
{"airport":"BEIRUT INTÅfL","area":"middleeast","country":"LEBANON","lat":33.8193756,"lon":35.4912043,"dst":0,"raw":7200,"timeID":"Asia/Beirut","timeZone":"Eastern European Standard Time"},
{"airport":"KING ABDULAZIZ INTÅfL","area":"middleeast","country":"SAUDI ARABIA","lat":21.670233,"lon":39.150578,"dst":0,"raw":10800,"timeID":"Asia/Riyadh","timeZone":"Arabian Standard Time"},
{"airport":"ABU DHABI INTÅfL","area":"middleeast","country":"U.A.E.","lat":24.4016163,"lon":54.5950827,"dst":0,"raw":14400,"timeID":"Asia/Dubai","timeZone":"Gulf Standard Time"},
{"airport":"DUBAI INTÅfl","area":"middleeast","country":"U.A.E.","lat":25.2531745,"lon":55.3656728,"dst":0,"raw":14400,"timeID":"Asia/Dubai","timeZone":"Gulf Standard Time"},
{"airport":"CAIRO INTÅfL","area":"africa","country":"EGYPT","lat":30.0886501,"lon":31.4035328,"dst":0,"raw":7200,"timeID":"Africa/Cairo","timeZone":"Eastern European Standard Time"},
{"airport":"Murtala Muhammed","area":"africa","country":"NIGERIA","lat":6.5818185,"lon":3.3211348,"dst":0,"raw":3600,"timeID":"Africa/Lagos","timeZone":"West Africa Standard Time"},
{"airport":"CAPE TOWN INTÅfL","area":"africa","country":"S. AFRICA","lat":-33.971463,"lon":18.6020851,"dst":0,"raw":7200,"timeID":"Africa/Johannesburg","timeZone":"South Africa Standard Time"},
{"airport":"TAMBO INTÅfL","area":"africa","country":"S. AFRICA","lat":14.5171666,"lon":120.9962712,"dst":0,"raw":28800,"timeID":"Asia/Manila","timeZone":"Philippine Standard Time"}]